{
  "1": {
    "coordinates": [
      41.39228,
      2.163218
    ],
    "district": "Eixample",
    "name": "Jardín Vertical de la Casa Batlló"
  },
  "2": {
    "coordinates": [
      41.363062,
      2.155247
    ],
    "district": "Sants-Montjuíc",
    "name": "Jardín Vertical de la Casa Vicens"
  },
  "3": {
    "coordinates": [
      41.388439,
      2.117901
    ],
    "district": "Les Corts",
    "name": "Jardín Vertical del Centre Cívic Joan Oliver"
  },
  "4": {
    "coordinates": [
      41.433954,
      2.146738
    ],
    "district": "Horta-Guinardó",
    "name": "Jardín Vertical del Palacio del Marqués de Alfarràs"
  },
  "5": {
    "coordinates": [
      41.441631,
      2.177238
    ],
    "district": "Nou Barris",
    "name": "Jardín Vertical del Pont de Sarajevo"
  },
  "6": {
    "coordinates": [
      41.398686,
      2.153461
    ],
    "district": "Gràcia",
    "name": "Jardín Vertical de la Plaza de las Mujeres del 36"
  },
  "7": {
    "coordinates": [
      41.408383,
      2.199638
    ],
    "district": "Sant Martí",
    "name": "Jardín Vertical del Edificio Media-TIC"
  },
  "8": {
    "coordinates": [
      41.408383,
      2.199638
    ],
    "district": "Sant Martí",
    "name": "Jardín Vertical de la Torre Espiral"
  },
  "9": {
    "coordinates": [
      41.408383,
      2.199638
    ],
    "district": "Sant Martí",
    "name": "Jardín Vertical del Edificio Imagina"
  },
  "10": {
    "coordinates": [
      41.408383,
      2.199638
    ],
    "district": "Sant Martí",
    "name": "Jardín Vertical del Hotel Ibis Styles Barcelona City Bogatell"
  },
  "11": {
    "coordinates": [
      41.408383,
      2.199638
    ],
    "district": "Sant Martí",
    "name": "Jardín Vertical del Edificio Utopicus"
  },
  "12": {
    "coordinates": [
      41.39228,
      2.163218
    ],
    "district": "Eixample",
    "name": "Jardín Vertical del Mercat de Sant Antoni"
  },
  "13": {
    "coordinates": [
      41.379518,
      2.168368
    ],
    "district": "Ciutat Vella",
    "name": "Jardín Vertical de la Biblioteca de Catalunya"
  },
  "14": {
    "coordinates": [
      41.434152,
      2.186315
    ],
    "district": "Sant Andreu",
    "name": "Jardín Vertical de la Estación de Autobuses Barcelona Nord"
  },
  "15": {
    "coordinates": [
      41.379518,
      2.168368
    ],
    "district": "Ciutat Vella",
    "name": "Jardín Vertical del Museo de Historia de Barcelona (MUHBA)"
  },
  "16": {
    "coordinates": [
      41.408383,
      2.199638
    ],
    "district": "Sant Martí",
    "name": "Jardín Vertical del Hospital de Sant Pau"
  },
  "17": {
    "coordinates": [
      41.379518,
      2.168368
    ],
    "district": "Ciutat Vella",
    "name": "Jardín Vertical de la Estación de Francia"
  },
  "18": {
    "coordinates": [
      41.408383,
      2.199638
    ],
    "district": "Sant Martí",
    "name": "Jardín Vertical del Edificio Tibidabo"
  },
  "19": {
    "coordinates": [
      41.379518,
      2.168368
    ],
    "district": "Ciutat Vella",
    "name": "Jardín Vertical de la Estacion de Metro Liceu"
  },
  "20": {
    "coordinates": [
      41.408383,
      2.199638
    ],
    "district": "Sant Martí",
    "name": "Jardín Vertical del Edificio Imagina B"
  },
  "21": {
    "coordinates": [
      41.363062,
      2.155247
    ],
    "district": "Sants-Montjuíc",
    "name": "Jardín Vertical de la Fundación Joan Miró"
  },
  "22": {
    "coordinates": [
      41.388439,
      2.117901
    ],
    "district": "Les Corts",
    "name": "Jardín Vertical del Edificio Diagonal 640"
  },
  "23": {
    "coordinates": [
      41.398686,
      2.153461
    ],
    "district": "Gràcia",
    "name": "Jardín Vertical del Edificio Balmes 108"
  },
  "24": {
    "coordinates": [
      41.398686,
      2.153461
    ],
    "district": "Gràcia",
    "name": "Jardín Vertical del Edificio La Pedrera"
  },
  "25": {
    "coordinates": [
      41.408383,
      2.199638
    ],
    "district": "Sant Martí",
    "name": "Jardín Vertical del Edificio Farinera Teixidor"
  },
  "26": {
    "coordinates": [
      41.408383,
      2.199638
    ],
    "district": "Sant Martí",
    "name": "Jardín Vertical del Edificio Almogavers Business Factory"
  },
  "27": {
    "coordinates": [
      41.408383,
      2.199638
    ],
    "district": "Sant Martí",
    "name": "Jardín Vertical del Edificio Esade Creapolis"
  },
  "28": {
    "coordinates": [
      41.388439,
      2.117901
    ],
    "district": "Les Corts",
    "name": "Jardín Vertical del Edificio Diagonal 605"
  },
  "29": {
    "coordinates": [
      41.433954,
      2.146738
    ],
    "district": "Horta-Guinardó",
    "name": "Jardín Vertical del Edificio Domo"
  },
  "30": {
    "coordinates": [
      41.433954,
      2.146738
    ],
    "district": "Horta-Guinardó",
    "name": "Jardín Vertical del Edificio Humanitas"
  }
}
